{"results": [{"fsq_id": "4b48b273f964a5202a5326e3", "categories": [{"id": 13034, "name": "Caf\u00e9", "short_name": "Caf\u00e9", "plural_name": "Caf\u00e9s", "icon": {"prefix": "https://ss3.4sqi.net/img/categories_v2/food/cafe_", "suffix": ".png"}}, {"id": 13329, "name": "Russian Restaurant", "short_name": "Russian", "plural_name": "Russian Restaurants", "icon": {"prefix": "https://ss3.4sqi.net/img/categories_v2/food/russian_", "suffix": ".png"}}], "chains": [], "closed_bucket": "LikelyOpen", "distance": 1437, "geocodes": {"main": {"latitude": 55.763621, "longitude": 37.604876}, "roof": {"latitude": 55.763621, "longitude": 37.604876}}, "link": "/v3/places/4b48b273f964a5202a5326e3", "location": {"address": "\u0422\u0432\u0435\u0440\u0441\u043a\u043e\u0439 \u0431\u0443\u043b\u044c\u0432., 26\u0430", "country": "RU", "cross_street": "\u0422\u0432\u0435\u0440\u0441\u043a\u0430\u044f \u0443\u043b.", "formatted_address": "\u0422\u0432\u0435\u0440\u0441\u043a\u043e\u0439 \u0431\u0443\u043b\u044c\u0432., 26\u0430 (\u0422\u0432\u0435\u0440\u0441\u043a\u0430\u044f \u0443\u043b.), 125009, \u041c\u043e\u0441\u043a\u0432\u0430", "locality": "\u041c\u043e\u0441\u043a\u0432\u0430", "postcode": "125009", "region": "\u041c\u043e\u0441\u043a\u0432\u0430"}, "name": "Cafe Pushkin (\u041a\u0430\u0444\u0435 \u041f\u0443\u0448\u043a\u0438\u043d\u044a)", "related_places": {"children": []}, "timezone": "Europe/Moscow"}, {"fsq_id": "4befa133ea570f47eb988fd2", "categories": [{"id": 13065, "name": "Restaurant", "short_name": "Restaurant", "plural_name": "Restaurants", "icon": {"prefix": "https://ss3.4sqi.net/img/categories_v2/food/default_", "suffix": ".png"}}], "chains": [], "closed_bucket": "LikelyOpen", "distance": 2069, "geocodes": {"main": {"latitude": 55.760687, "longitude": 37.644842}}, "link": "/v3/places/4befa133ea570f47eb988fd2", "location": {"address": "\u0427\u0438\u0441\u0442\u043e\u043f\u0440\u0443\u0434\u043d\u044b\u0439 \u0431\u0443\u043b\u044c\u0432., 12\u0430 \u0441\u04426", "address_extended": "\u0441\u0442\u0440. 6", "country": "RU", "cross_street": "\u0443\u043b. \u041f\u043e\u043a\u0440\u043e\u0432\u043a\u0430", "formatted_address": "\u0427\u0438\u0441\u0442\u043e\u043f\u0440\u0443\u0434\u043d\u044b\u0439 \u0431\u0443\u043b\u044c\u0432., 12\u0430 \u0441\u04426 (\u0443\u043b. \u041f\u043e\u043a\u0440\u043e\u0432\u043a\u0430), 101000, \u041c\u043e\u0441\u043a\u0432\u0430", "locality": "\u041c\u043e\u0441\u043a\u0432\u0430", "postcode": "101000", "region": "\u041c\u043e\u0441\u043a\u0432\u0430"}, "name": "\u0428\u0430\u0442\u0451\u0440", "related_places": {}, "timezone": "Europe/Moscow"}, {"fsq_id": "4fa68f8ce4b0d90526730a59", "categories": [{"id": 13000, "name": "Dining and Drinking", "short_name": "Dining and Drinking", "plural_name": "Dining and Drinking", "icon": {"prefix": "https://ss3.4sqi.net/img/categories_v2/food/default_", "suffix": ".png"}}], "chains": [], "closed_bucket": "LikelyOpen", "distance": 988, "geocodes": {"main": {"latitude": 55.76092, "longitude": 37.614747}, "roof": {"latitude": 55.76092, "longitude": 37.614747}}, "link": "/v3/places/4fa68f8ce4b0d90526730a59", "location": {"address": "\u0414\u043c\u0438\u0442\u0440\u043e\u0432\u043a\u0430 \u0411. \u0423\u043b., \u0434. 7/5", "address_extended": "\u0441\u0442\u0440. 5", "country": "RU", "cross_street": "", "formatted_address": "\u0414\u043c\u0438\u0442\u0440\u043e\u0432\u043a\u0430 \u0411. \u0423\u043b., \u0434. 7/5, 125009, \u041c\u043e\u0441\u043a\u0432\u0430", "locality": "\u041c\u043e\u0441\u043a\u0432\u0430", "postcode": "125009", "region": "\u041c\u043e\u0441\u043a\u0432\u0430"}, "name": "Moloko (\u041c\u043e\u043b\u043e\u043a\u043e)", "related_places": {}, "timezone": "Europe/Moscow"}, {"fsq_id": "4da02f86a2e9ba7aa6c4fb50", "categories": [{"id": 13035, "name": "Coffee Shop", "short_name": "Coffee Shop", "plural_name": "Coffee Shops", "icon": {"prefix": "https://ss3.4sqi.net/img/categories_v2/food/coffeeshop_", "suffix": ".png"}}], "chains": [], "closed_bucket": "Unsure", "distance": 11241, "geocodes": {"main": {"latitude": 55.798962, "longitude": 37.77507}}, "link": "/v3/places/4da02f86a2e9ba7aa6c4fb50", "location": {"address": "\u041d\u0438\u043a\u0438\u0442\u0438\u043d\u0441\u043a\u0430\u044f \u0423\u043b., \u0434. 13", "country": "RU", "formatted_address": "\u041d\u0438\u043a\u0438\u0442\u0438\u043d\u0441\u043a\u0430\u044f \u0423\u043b., \u0434. 13, 105037, \u041c\u043e\u0441\u043a\u0432\u0430", "locality": "\u041c\u043e\u0441\u043a\u0432\u0430", "postcode": "105037", "region": "\u041c\u043e\u0441\u043a\u0432\u0430"}, "name": "\u042d\u0441\u0441\u044d", "related_places": {}, "timezone": "Europe/Moscow"}, {"fsq_id": "563e3a16cd102a339ccbce72", "categories": [{"id": 13035, "name": "Coffee Shop", "short_name": "Coffee Shop", "plural_name": "Coffee Shops", "icon": {"prefix": "https://ss3.4sqi.net/img/categories_v2/food/coffeeshop_", "suffix": ".png"}}, {"id": 13065, "name": "Restaurant", "short_name": "Restaurant", "plural_name": "Restaurants", "icon": {"prefix": "https://ss3.4sqi.net/img/categories_v2/food/default_", "suffix": ".png"}}], "chains": [], "closed_bucket": "Unsure", "distance": 933, "geocodes": {"main": {"latitude": 55.754929, "longitude": 37.601519}, "roof": {"latitude": 55.754929, "longitude": 37.601519}}, "link": "/v3/places/563e3a16cd102a339ccbce72", "location": {"address": "\u041a\u0443\u0442\u0443\u0437\u043e\u0432\u0441\u043a\u0438\u0439 \u041f\u0440., 36 \u0441\u044239", "country": "RU", "cross_street": "", "formatted_address": "\u041a\u0443\u0442\u0443\u0437\u043e\u0432\u0441\u043a\u0438\u0439 \u041f\u0440., 36 \u0441\u044239, \u041c\u043e\u0441\u043a\u0432\u0430", "locality": "\u041c\u043e\u0441\u043a\u0432\u0430", "region": "\u041c\u043e\u0441\u043a\u0432\u0430"}, "name": "Skuratov Coffee", "related_places": {}, "timezone": "Europe/Moscow"}], "context": {"geo_bounds": {"circle": {"center": {"latitude": 55.75222, "longitude": 37.61556}, "radius": 24000}}}}